[
	{
		"id" : "1",
		"deleted" : false,
		"name" : "Ozzy",
		"averageGrade" : 7.64,
		"sportObjectType" : "GYM",
		"location" : {
			"address" : {
				"street" : "Jovana Ducica",
				"number" : "12a",
				"city" : "Novi Sad",
				"postalNumber" : "21000"
			},
			"longitude" : 24.42,
			"latitude" : 12.23
		}
	},
	{
		"id" : "2",
		"deleted" : false,
		"name" : "Coloseum",
		"averageGrade" : 10.00,
		"sportObjectType" : "GYM",
		"location" : {
			"address" : {
				"street" : "Bulevar Patrijarha Pavla",
				"number" : "35",
				"city" : "Novi Sad",
				"postalNumber" : "21000"
			},
			"longitude" : 24.42,
			"latitude" : 12.23
		}
	},
	{
		"id" : "3",
		"deleted" : false,
		"name" : "Flex",
		"averageGrade" : 8.64,
		"sportObjectType" : "POOL",
		"location" : {
			"address" : {
				"street" : "Bulevar Zorana Djindjica",
				"number" : "22",
				"city" : "Beograd",
				"postalNumber" : "11000"
			},
			"longitude" : 24.42,
			"latitude" : 12.23
		}
	},
	{
		"id" : "4",
		"deleted" : false,
		"name" : "TotalGym",
		"averageGrade" : 10.00,
		"sportObjectType" : "GYM",
		"location" : {
			"address" : {
				"street" : "Bulevar Patrijarha Pavla",
				"number" : "35",
				"city" : "Novi Sad",
				"postalNumber" : "21000"
			},
			"longitude" : 24.42,
			"latitude" : 12.23
		}
	},
	{
		"id" : "5",
		"deleted" : false,
		"name" : "ProFitness",
		"averageGrade" : 10.00,
		"sportObjectType" : "GYM",
		"location" : {
			"address" : {
				"street" : "Bulevar Patrijarha Pavla",
				"number" : "35",
				"city" : "Novi Sad",
				"postalNumber" : "21000"
			},
			"longitude" : 24.42,
			"latitude" : 12.23
		}
	},
	{
		"id" : "6",
		"deleted" : false,
		"name" : "NoLimit",
		"averageGrade" : 10.00,
		"sportObjectType" : "GYM",
		"location" : {
			"address" : {
				"street" : "Bulevar Patrijarha Pavla",
				"number" : "35",
				"city" : "Novi Sad",
				"postalNumber" : "21000"
			},
			"longitude" : 24.42,
			"latitude" : 12.23
		}
	},
	{
		"id" : "7",
		"deleted" : false,
		"name" : "Classic",
		"averageGrade" : 10.00,
		"sportObjectType" : "GYM",
		"location" : {
			"address" : {
				"street" : "Bulevar Patrijarha Pavla",
				"number" : "35",
				"city" : "Novi Sad",
				"postalNumber" : "21000"
			},
			"longitude" : 24.42,
			"latitude" : 12.23
		}
	},
	{
		"id" : "8",
		"deleted" : true,
		"name" : "Synergy",
		"averageGrade" : 10.00,
		"sportObjectType" : "GYM",
		"location" : {
			"address" : {
				"street" : "Bulevar Patrijarha Pavla",
				"number" : "35",
				"city" : "Novi Sad",
				"postalNumber" : "21000"
			},
			"longitude" : 24.42,
			"latitude" : 12.23
		}
	}
]